City_ID,City,Lat,Lng,Max Temp,Humidity,Cloudiness,Wind Speed,Country,Date
0,whitehorse,60.7161,-135.0538,-12.57,85,100,1.03,CA,1704172856
1,puerto ayora,-0.7393,-90.3518,24.75,98,47,2.4,EC,1704172857
2,adamstown,-25.066,-130.1015,23.52,84,100,3.68,PN,1704172858
3,faaa,-17.55,-149.6,27.98,78,75,3.09,PF,1704172859
4,sao felix do xingu,-6.6447,-51.995,22.15,98,47,0.39,BR,1704172860
5,uliastay,47.7417,96.8444,-10.73,71,13,2.62,MN,1704172861
6,salalah,17.0151,54.0924,26.05,57,0,2.06,OM,1704172820
7,bethel,41.3712,-73.414,-0.03,70,0,1.54,US,1704172863
8,ilulissat,69.2167,-51.1,-8.99,38,21,9.26,GL,1704172864
9,dan sadau,11.2962,6.4952,19.32,20,7,3.27,NG,1704172865
10,grytviken,-54.2811,-36.5092,0.79,76,82,2.47,GS,1704172866
11,naliya,23.2667,68.8333,23.52,23,0,5.55,IN,1704172867
12,lagoa,39.05,-27.9833,16.08,86,100,9.47,PT,1704172868
13,khandyga,62.6667,135.6,-31.14,91,99,1.03,RU,1704172869
14,kill devil hills,36.0307,-75.676,5.55,79,100,3.6,US,1704172870
15,waat,51.1454,6.4958,10.15,97,100,4.63,DE,1704172871
16,waitangi,-43.9535,-176.5597,16.01,83,100,4.02,NZ,1704172872
17,borkum,53.5809,6.6915,6.64,93,100,11.43,DE,1704172873
18,aasiaat,68.7098,-52.8699,-20.4,91,38,4.29,GL,1704172874
19,qaqortoq,60.7167,-46.0333,-9.12,73,100,3.05,GL,1704172875
20,bardai,11.65,7.2333,16.4,21,13,4.18,NG,1704172876
21,subaykhan,34.8544,40.6083,12.15,53,100,1.85,SY,1704172877
22,mili,6.0815,171.735,28.03,79,19,8.82,MH,1704172878
23,klyuchi,52.2667,79.1667,-0.76,95,100,6.82,RU,1704172879
24,makaha,21.4694,-158.2175,25.95,68,75,4.12,US,1704172880
25,tiksi,71.6872,128.8694,-29.08,100,100,0.36,RU,1704172881
26,syktyvkar,61.6764,50.8099,-31.15,76,20,1.0,RU,1704172882
27,indianola,41.3581,-93.5574,-2.73,86,1,2.24,US,1704172879
28,stanley,54.868,-1.6985,7.93,96,75,2.06,GB,1704172634
29,namtsy,62.7161,129.6658,-35.97,100,99,1.06,RU,1704172886
30,dongcun,36.7767,121.1597,4.8,53,84,3.06,CN,1704172887
31,kratie,12.4881,106.0188,34.92,36,76,4.32,KH,1704172888
32,happy valley-goose bay,53.3168,-60.3315,-10.83,62,100,1.54,CA,1704172889
33,port-aux-francais,-49.35,70.2167,4.21,91,88,19.25,TF,1704172890
34,el hadjira,32.6134,5.5126,11.62,42,77,4.63,DZ,1704172891
35,longyearbyen,78.2186,15.6401,-6.09,68,40,8.75,SJ,1704172867
36,puerto natales,-51.7236,-72.4875,11.14,94,95,1.18,CL,1704172893
37,jaleshwar,26.6471,85.8008,21.14,41,0,1.69,NP,1704172895
38,port mathurin,-19.6833,63.4167,27.65,77,71,5.77,MU,1704172895
39,anadyr,64.75,177.4833,-6.72,86,40,12.0,RU,1704172896
40,olonkinbyen,70.9221,-8.7187,0.12,97,100,4.41,SJ,1704172897
41,ribeira grande,38.5167,-28.7,17.1,90,100,2.24,PT,1704172899
42,albany,42.6001,-73.9662,-3.95,77,4,0.89,US,1704172774
43,saudarkrokur,65.7461,-19.6394,-1.26,97,96,1.15,IS,1704172900
44,ushuaia,-54.8,-68.3,8.81,93,0,5.14,AR,1704172901
45,touros,-5.1989,-35.4608,25.69,85,65,2.43,BR,1704172902
46,punta arenas,-53.15,-70.9167,13.06,76,75,2.06,CL,1704172903
47,kayar,14.9192,-17.1211,22.53,65,100,4.6,SN,1704172904
48,hawaiian paradise park,19.5933,-154.9731,22.71,87,75,3.09,US,1704172905
49,chonchi,-42.6128,-73.8092,10.62,99,61,1.37,CL,1704172906
50,enewetak,11.3474,162.3373,27.62,72,44,8.2,MH,1704172907
51,talnakh,69.4865,88.3972,-31.0,88,48,1.0,RU,1704172908
52,kodinsk,58.6881,99.1844,-20.87,98,88,1.35,RU,1704172909
53,cobija,-11.0267,-68.7692,22.34,99,65,1.21,BO,1704172910
54,kodiak,57.79,-152.4072,3.73,93,100,11.32,US,1704172911
55,alice springs,-23.7,133.8833,40.75,9,59,4.12,AU,1704172912
56,upington,-28.4478,21.2561,25.21,50,0,1.03,ZA,1704172913
57,sukuta,13.4103,-16.7082,21.01,64,0,0.0,GM,1704172914
58,jauja,-11.7758,-75.4966,11.94,83,100,1.57,PE,1704172915
59,coracora,-15.0333,-73.7833,10.51,84,76,1.11,PE,1704172916
60,reyhanli,36.2692,36.5672,9.92,69,100,1.6,TR,1704172917
61,hasaki,35.7333,140.8333,12.38,56,75,3.82,JP,1704172918
62,badger,64.8,-147.5333,-23.07,78,0,0.0,US,1704172919
63,margaret river,-33.95,115.0667,23.84,52,44,6.81,AU,1704172920
64,le port,-20.9373,55.2919,25.0,91,100,4.7,RE,1704172921
65,bilibino,68.0546,166.4372,-24.78,92,100,0.33,RU,1704172922
66,yellowknife,62.456,-114.3525,-16.71,78,100,5.14,CA,1704172923
67,broken hill,-31.95,141.4333,38.83,14,83,8.21,AU,1704172924
68,pekan,3.4836,103.3996,29.06,91,98,3.3,MY,1704172925
69,nagqu,31.5,92.0,-8.87,56,71,2.16,CN,1704172926
70,nieuw amsterdam,5.8833,-55.0833,25.57,89,5,3.54,SR,1704172927
71,port alfred,-33.5906,26.891,18.99,90,99,2.68,ZA,1704172928
72,arcachon,44.5875,-1.0519,10.23,76,100,3.09,FR,1704172929
73,mogocha,53.7333,119.7667,-15.76,83,94,1.23,RU,1704172930
74,nikol'sk,53.7189,46.0712,-12.6,94,100,1.84,RU,1704172932
75,lebu,-37.6167,-73.65,13.08,85,2,6.65,CL,1704172933
76,blackmans bay,-43.0167,147.3167,21.52,68,99,1.79,AU,1704172934
77,invercargill,-46.4,168.35,15.57,77,91,6.26,NZ,1704172842
78,urengoy,65.9667,78.3667,-33.26,97,8,3.88,RU,1704172936
79,fernandopolis,-20.2839,-50.2464,21.43,88,98,2.0,BR,1704172938
80,ipora,-16.4419,-51.1178,20.91,90,94,1.29,BR,1704172939
81,murghob,38.1702,73.9667,-11.25,33,84,1.41,TJ,1704172940
82,marsa alam,25.0757,34.8918,19.27,47,0,3.5,EG,1704172941
83,toliara,-23.35,43.6667,26.99,72,100,5.77,MG,1704172942
84,horta,38.5333,-28.6333,16.68,90,100,2.24,PT,1704172943
85,avarua,-21.2078,-159.775,26.03,73,12,3.6,CK,1704172944
86,puerto deseado,-47.7503,-65.8938,14.33,67,57,6.82,AR,1704172945
87,papatowai,-46.5619,169.4708,15.9,62,91,5.2,NZ,1704172946
88,salinas,36.6777,-121.6555,11.15,88,0,2.06,US,1704172947
89,bride,54.3826,-4.3892,9.74,84,96,10.0,IM,1704172948
90,iqaluit,63.7506,-68.5145,-28.15,63,20,4.12,CA,1704172949
91,kapuskasing,49.4169,-82.4331,-1.95,80,100,7.72,CA,1704172950
92,edinburgh of the seven seas,-37.0676,-12.3116,16.41,89,100,1.65,SH,1704172951
93,kayangel,8.0823,134.7173,28.82,71,76,3.64,PW,1704172951
94,merizo village,13.2658,144.6691,30.32,86,47,5.94,GU,1704172952
95,maintirano,-18.0667,44.0167,28.57,77,99,4.98,MG,1704172953
96,tanjung pandan,-2.75,107.65,28.87,73,100,3.47,ID,1704172954
97,puerto baquerizo moreno,-0.9,-89.6,24.35,88,6,3.13,EC,1704172955
98,tura,25.5198,90.2201,23.32,41,0,0.81,IN,1704172956
99,west island,-12.1568,96.8225,29.99,74,75,7.72,CC,1704172957
100,petropavlovsk-kamchatsky,53.0452,158.6483,-12.67,77,0,7.6,RU,1704172959
101,luocheng,29.3848,104.0286,14.18,56,85,1.43,CN,1704172959
102,laojunmiao,39.8333,97.7333,0.48,20,0,2.63,CN,1704172960
103,laguna,38.421,-121.4238,9.39,92,0,3.6,US,1704172961
104,queenstown,-31.8976,26.8753,15.25,91,100,1.13,ZA,1704172962
105,uturoa,-16.7333,-151.4333,28.15,79,100,4.24,PF,1704172963
106,sitka,57.0531,-135.33,6.94,53,100,6.69,US,1704172964
107,ishinomaki,38.4167,141.3,9.0,53,72,2.14,JP,1704172965
108,cabo san lucas,22.8909,-109.9124,22.09,72,91,0.89,MX,1704172563
109,kavaratti,10.5669,72.642,27.75,74,96,4.61,IN,1704172966
110,kitimat,54.0524,-128.6534,2.21,64,100,0.89,CA,1704172967
111,thompson,55.7435,-97.8558,-9.91,79,100,3.6,CA,1704172968
112,tamanrasset,22.785,5.5228,6.95,26,0,1.03,DZ,1704172969
113,cidreira,-30.1811,-50.2056,22.36,86,99,8.3,BR,1704172970
114,floro,61.5996,5.0328,2.98,48,0,10.29,NO,1704172971
115,sisimiut,66.9395,-53.6735,-8.07,63,100,5.86,GL,1704172972
116,le puy-en-velay,45.0437,3.8852,5.59,89,100,2.59,FR,1704172973
117,keflavik,64.0049,-22.5624,3.95,87,75,8.23,IS,1704172974
118,egilsstadir,65.2653,-14.3948,5.95,75,75,3.09,IS,1704172775
119,illizi,26.4833,8.4667,6.89,22,68,2.32,DZ,1704172976
120,vilyuchinsk,52.9306,158.4028,-11.85,75,95,4.91,RU,1704172977
121,sungai penuh,-2.0833,101.3833,25.35,71,93,1.05,ID,1704172978
122,waingapu,-9.6567,120.2641,32.27,62,13,4.03,ID,1704172979
123,ciudad constitucion,25.0369,-111.6644,16.05,73,100,3.48,MX,1704172980
124,lazaro cardenas,17.9583,-102.2,22.62,65,72,1.98,MX,1704172982
125,jamestown,42.097,-79.2353,-1.23,87,100,2.57,US,1704172870
126,nadi,-17.8,177.4167,30.0,66,40,7.2,FJ,1704172986
127,arteche,12.2645,125.4048,29.58,62,61,3.66,PH,1704172987
128,mundri,-6.9558,111.71,31.05,66,66,2.63,ID,1704172988
129,port elizabeth,-33.918,25.5701,20.61,89,49,2.68,ZA,1704172784
130,son la,21.3167,103.9,25.26,52,79,0.28,VN,1704172990
131,la'ie,21.6477,-157.9253,23.98,82,0,1.79,US,1704172991
132,sint michiel liber,12.15,-68.9833,26.9,78,20,4.63,CW,1704172992
133,sarangani,5.4033,125.4636,25.99,83,100,1.03,PH,1704172993
134,prince george,53.9166,-122.753,-1.32,96,75,0.89,CA,1704172994
135,morehead city,34.7229,-76.726,7.0,73,0,6.17,US,1704172995
136,daru,-9.0763,143.2092,30.63,67,100,2.48,PG,1704172996
137,kourou,5.1552,-52.6478,26.03,81,12,4.23,GF,1704172997
138,carnarvon,-24.8667,113.6333,27.53,53,3,10.08,AU,1704172999
139,minas de marcona,-15.2119,-75.1103,16.47,85,77,4.65,PE,1704173000
140,new norfolk,-42.7826,147.0587,22.18,50,100,2.81,AU,1704173001
141,angra do heroismo,38.65,-27.2167,17.29,91,40,4.92,PT,1704172899
142,lihue,21.9789,-159.3672,24.58,82,100,5.66,US,1704173004
143,luanda,-8.8368,13.2343,26.0,80,75,0.51,AO,1704172909
144,salahonda,2.1019,-78.7217,25.64,89,100,5.01,CO,1704173006
145,mitu,1.1983,-70.1733,24.45,88,86,0.3,CO,1704173007
146,aripuana,-9.1667,-60.6333,22.96,98,94,0.71,BR,1704172983
147,cockburn town,21.4612,-71.1419,24.58,82,82,8.21,TC,1704172776
148,mejit,10.2753,170.8646,26.94,81,77,9.52,MH,1704172878
149,flin flon,54.7682,-101.865,-10.3,86,100,4.15,CA,1704173011
150,kerikeri,-35.2268,173.9474,21.62,72,5,2.54,NZ,1704173011
151,holbeach,52.804,0.0144,10.48,89,20,9.77,GB,1704173012
152,mukalla,14.5425,49.1242,24.15,70,15,1.49,YE,1704173013
153,praia da vitoria,38.7333,-27.0667,17.09,88,40,4.45,PT,1704173014
154,puerto aysen,-45.4,-72.7,12.28,95,87,1.76,CL,1704173015
155,machilipatnam,16.1667,81.1333,27.22,71,94,3.34,IN,1704173016
156,nemuro,43.3236,145.575,1.11,77,100,8.9,JP,1704173017
157,ishigaki,24.3448,124.1572,23.07,56,75,4.12,JP,1704173018
158,kismayo,-0.3582,42.5454,27.87,72,96,5.78,SO,1704173019
159,st. john's,47.5649,-52.7093,-4.29,89,100,4.12,CA,1704172753
160,el sauzal de rodriguez,31.9,-116.6833,12.29,74,10,2.93,MX,1704173020
161,pechora,65.1472,57.2244,-36.75,100,19,0.45,RU,1704173021
162,weno,7.4515,151.8468,25.97,100,100,2.57,FM,1704173022
163,sarina,-21.4333,149.2167,29.04,1,33,4.04,AU,1704173024
164,luis correia,-2.8792,-41.6669,25.5,82,99,1.9,BR,1704173025
165,atafu village,-8.5421,-172.5159,28.95,68,99,2.49,TK,1704173025
166,bang saphan,11.2126,99.5117,31.27,52,17,2.69,TH,1704173026
167,campillos,37.0483,-4.8631,8.27,76,93,0.51,ES,1704173027
168,limon,10.0,-83.0333,24.47,83,8,1.2,CR,1704173028
169,hithadhoo,-0.6,73.0833,27.45,77,87,1.89,MV,1704173029
170,paka,4.6374,103.4368,30.96,66,40,3.6,MY,1704173030
171,san andres,12.5847,-81.7006,28.01,74,20,4.12,CO,1704172805
172,grand falls-windsor,48.9332,-55.6649,-9.16,82,5,0.45,CA,1704173033
173,la passe,45.5549,-0.8967,10.13,77,100,6.92,FR,1704173033
174,san patricio,28.017,-97.5169,13.92,68,100,3.31,US,1704173034
175,mount gambier,-37.8333,140.7667,25.76,55,76,5.83,AU,1704173035
176,selfoss,63.9331,-20.9971,3.36,92,99,3.64,IS,1704173036
177,kone,-21.0595,164.8658,30.83,54,62,1.96,NC,1704173037
178,prado,-17.3411,-39.2208,23.9,91,100,1.4,BR,1704173038
179,lautoka,-17.6167,177.4667,29.92,66,40,7.2,FJ,1704173039
180,gadzhiyevo,69.2551,33.3362,-19.06,89,77,8.2,RU,1704173040
181,pindushi,62.9152,34.58,-16.89,96,100,2.68,RU,1704173041
182,ust-nera,64.5667,143.2,-43.27,98,72,1.75,RU,1704173042
183,mount isa,-20.7333,139.5,40.87,18,40,4.12,AU,1704173043
184,targu carbunesti,44.95,23.5167,5.96,64,100,2.37,RO,1704173044
185,udachny,66.4167,112.4,-30.55,99,99,2.41,RU,1704172969
186,mount pearl,47.5166,-52.7813,-4.75,89,100,4.12,CA,1704173046
187,hermanus,-34.4187,19.2345,21.0,85,6,5.14,ZA,1704173048
188,maxixe,-23.8597,35.3472,24.57,86,100,7.11,MZ,1704173049
189,nabire,-3.3667,135.4833,29.68,72,72,2.04,ID,1704172764
190,hoemul-li,41.4339,129.67,2.76,71,57,2.02,KP,1704172826
191,vanino,49.0869,140.2543,-10.04,64,99,1.72,RU,1704173052
192,chos malal,-37.3781,-70.2709,19.13,30,31,2.22,AR,1704173053
193,polyarnyy,69.1989,33.4478,-19.28,91,74,7.34,RU,1704172808
194,portland,45.5234,-122.6762,7.24,80,100,5.36,US,1704172290
195,east london,-33.0153,27.9116,19.52,94,100,4.63,ZA,1704173055
196,cill airne,52.05,-9.5167,9.28,97,100,1.21,IE,1704173056
197,vorgashor,67.5833,63.95,-33.33,100,17,1.18,RU,1704173057
198,ad darb,17.7229,42.2526,25.04,73,1,0.41,SA,1704173058
199,kununurra,-15.7667,128.7333,37.99,44,71,3.09,AU,1704173059
200,coahuayana de hidalgo,18.7,-103.6583,22.34,76,100,1.69,MX,1704173060
201,karratha,-20.7377,116.8463,34.88,37,0,9.59,AU,1704173061
202,inarajan village,13.2736,144.7484,30.55,86,45,5.95,GU,1704173062
203,faisalabad,31.4167,73.0833,17.36,28,0,1.56,PK,1704173063
204,aransas pass,27.9095,-97.15,14.0,76,40,7.2,US,1704173064
205,luderitz,-26.6481,15.1594,18.51,91,26,1.61,NA,1704173065
206,bredasdorp,-34.5322,20.0403,19.73,87,35,4.03,ZA,1704173066
207,bathsheba,13.2167,-59.5167,26.34,83,20,6.17,BB,1704173067
208,levuka,50.1834,-105.4011,-6.16,85,6,3.45,CA,1704173068
209,sovetskaya gavan',48.9723,140.2878,-9.94,62,96,2.3,RU,1704173069
210,richards bay,-28.783,32.0377,22.53,84,68,2.92,ZA,1704173070
211,san luis de la loma,17.2706,-100.8939,23.63,66,3,2.65,MX,1704173071
212,kruisfontein,-34.0033,24.7314,19.94,87,20,4.56,ZA,1704173072
213,port lincoln,-34.7333,135.8667,22.39,61,60,4.84,AU,1704173073
214,celina,40.5489,-84.5702,1.17,81,91,2.59,US,1704172946
215,nyandoma,61.669,40.1991,-30.89,100,99,0.93,RU,1704173076
216,emerald,-23.5333,148.1667,31.3,49,78,3.6,AU,1704173078
217,santa elena de uairen,4.6167,-61.1333,21.06,79,89,1.84,VE,1704173079
218,essaouira,31.5125,-9.77,8.72,42,2,0.51,MA,1704173079
219,labrador city,52.9463,-66.9114,-11.05,73,100,5.14,CA,1704173080
220,wailua homesteads,22.0669,-159.378,24.24,86,100,5.66,US,1704173081
221,akropong,5.9746,-0.0854,24.53,87,29,1.56,GH,1704173082
222,aykhal,66.0,111.5,-30.14,99,100,2.55,RU,1704173083
223,ugoofaaru,5.6667,73.0,27.28,79,100,4.81,MV,1704173084
224,bridgewater,44.3835,-64.5155,-3.18,74,20,4.12,CA,1704173085
225,berdyansk,46.7503,36.7944,6.99,94,100,8.72,UA,1704173086
226,priob'ye,62.5206,65.5964,-28.32,96,38,3.48,RU,1704173087
227,arraial do cabo,-22.9661,-42.0278,23.22,82,100,3.71,BR,1704173088
228,tandil,-37.3217,-59.1332,17.6,89,12,1.82,AR,1704173089
229,isafjordur,66.0755,-23.124,3.57,96,100,5.1,IS,1704173090
230,al jubayl,27.0112,49.6583,18.97,63,0,4.95,SA,1704173091
231,balasore,21.4942,86.9317,25.09,32,0,3.52,IN,1704173091
232,sete lagoas,-19.4658,-44.2467,19.49,97,99,2.78,BR,1704173092
233,aioun,16.6614,-9.6149,19.57,13,98,4.38,MR,1704173093
234,uman,48.7484,30.2218,5.75,69,100,10.66,UA,1704173095
235,dudinka,69.4058,86.1778,-30.77,97,44,2.36,RU,1704173096
236,nova vicosa,-17.8919,-39.3719,23.75,91,100,1.1,BR,1704173098
237,saipan,15.1355,145.701,29.39,74,40,5.66,MP,1704173099
238,soe,-9.8607,124.284,31.92,36,60,2.95,ID,1704173100
239,tazovsky,67.4667,78.7,-31.57,94,17,3.83,RU,1704173101
240,trondheim,63.4305,10.3951,-4.95,65,1,1.79,NO,1704172945
241,fontanelas,38.8472,-9.4372,16.55,96,100,5.79,PT,1704173103
242,walvis bay,-22.9575,14.5053,18.23,69,2,2.56,NA,1704172851
243,tambopata,-12.7333,-69.1833,22.83,99,86,1.17,PE,1704173106
244,kafir qala,34.6667,61.0667,7.24,47,84,8.5,AF,1704173107
245,allapalli,19.4167,80.0667,27.72,48,4,1.09,IN,1704173108
246,zouerate,22.7187,-12.4521,17.29,18,100,3.37,MR,1704173109
247,salym,60.0625,71.4789,-20.42,96,100,4.34,RU,1704173110
248,midelt,32.6852,-4.7451,3.8,67,7,0.88,MA,1704173111
249,gizo,-8.103,156.8419,29.6,71,52,0.6,SB,1704173112
250,byron bay,-28.65,153.6167,24.84,85,100,6.24,AU,1704173113
251,eyl,7.9803,49.8164,24.44,68,98,8.51,SO,1704173114
252,tocache,-8.1842,-76.5125,21.59,98,98,0.51,PE,1704173115
253,mana,5.6592,-53.7767,25.28,81,10,4.74,GF,1704173116
254,yala,6.3333,101.25,31.22,55,59,3.12,TH,1704173117
255,pyt-yakh,60.7499,72.8582,-25.19,95,100,4.68,RU,1704173117
256,tossa de mar,41.7325,2.9338,8.73,79,64,3.78,ES,1704173119
257,bandon,51.7469,-8.7425,10.77,98,100,2.34,IE,1704173120
258,pushkinskiye gory,57.0209,28.9103,-17.35,85,62,3.65,RU,1704173120
259,petropavl,54.8753,69.1628,-8.01,86,100,8.0,KZ,1704173121
260,tual,-5.6667,132.75,28.87,75,100,3.24,ID,1704173122
261,naze,28.3667,129.4833,19.51,50,6,1.96,JP,1704173123
262,al kharijah,25.4514,30.5464,11.93,71,0,3.37,EG,1704173124
263,namibe,-15.1961,12.1522,21.57,68,13,3.88,AO,1704173125
264,ulsteinvik,62.3432,5.8487,3.07,67,65,4.45,NO,1704173126
265,coquimbo,-29.9533,-71.3436,15.85,88,0,0.0,CL,1704172996
266,vila franca do campo,37.7167,-25.4333,18.27,99,100,3.65,PT,1704173128
267,fale old settlement,-9.3852,-171.2468,29.0,69,94,1.86,TK,1704173129
268,utrik,11.2278,169.8474,27.48,73,73,7.79,MH,1704173130
269,kingston,17.997,-76.7936,25.53,83,75,2.06,JM,1704173131
270,turaif,31.6725,38.6637,7.14,93,100,2.06,SA,1704173131
271,tagta,41.6504,59.9164,-5.03,100,40,0.0,TM,1704173132
272,ghat,24.9647,10.1728,14.26,23,8,2.62,LY,1704173133
273,college,64.8569,-147.8028,-23.03,75,40,0.0,US,1704173134
274,copala,16.65,-98.9833,23.8,61,4,1.52,MX,1704173135
275,igarka,67.4667,86.5833,-27.17,100,95,1.95,RU,1704173136
276,afaahiti,-17.75,-149.2833,26.93,82,100,4.24,PF,1704172996
277,gwanda,-20.9333,29.0,19.75,82,72,6.23,ZW,1704173138
278,jeremoabo,-10.075,-38.4808,21.45,94,8,2.06,BR,1704173138
279,pago pago,-14.2781,-170.7025,27.55,100,75,3.09,AS,1704173139
280,surgeres,46.1,-0.75,11.96,80,100,7.11,FR,1704173140
281,nar'yan-mar,67.6713,53.087,-25.5,100,89,1.79,RU,1704173141
282,vila velha,-20.3297,-40.2925,22.97,95,100,1.34,BR,1704172978
283,gorontalo,0.5412,123.0595,31.39,66,76,1.75,ID,1704173143
284,usinsk,65.9939,57.5281,-27.74,96,6,4.47,RU,1704173144
285,rudsar,37.1376,50.288,8.99,81,18,2.79,IR,1704173145
286,as sulaymaniyah,35.5611,45.4375,1.24,100,98,2.06,IQ,1704173146
287,barabai,-2.5833,115.3833,30.95,74,95,0.96,ID,1704173147
288,colonia,50.9333,6.95,9.77,91,100,7.2,DE,1704172984
289,altai,46.3722,96.2583,-9.24,52,16,2.28,MN,1704173148
290,oruro,-17.9833,-67.15,10.59,67,81,4.11,BO,1704172972
291,fort st. john,56.2499,-120.8529,-9.06,86,100,3.6,CA,1704173150
292,kandi,11.1342,2.9386,20.48,19,18,2.4,BJ,1704173151
293,nizhnevartovsk,60.9344,76.5531,-21.66,77,100,5.0,RU,1704173152
294,san sebastian de la gomera,28.0916,-17.1133,19.2,88,0,0.0,ES,1704173154
295,georgetown,5.4112,100.3354,31.97,66,20,3.09,MY,1704173046
296,kudahuvadhoo,2.6708,72.8944,27.5,78,88,2.6,MV,1704173155
297,nova sintra,14.8667,-24.7167,22.16,62,100,3.22,CV,1704173156
298,howard springs,-12.497,131.047,33.95,57,93,4.34,AU,1704173158
299,constantia,44.1833,28.65,6.5,82,100,3.44,RO,1704173159
300,shimoda,34.6667,138.95,10.2,93,100,3.13,JP,1704173160
301,sarakhs,36.5449,61.1577,8.27,57,100,1.35,IR,1704173161
302,mata-utu,-13.2816,-176.1745,28.25,77,87,4.41,WF,1704173162
303,tshabong,-26.05,22.45,26.26,36,0,3.53,BW,1704173163
304,terenozek,45.05,64.9833,1.54,80,21,5.56,KZ,1704173164
305,bokkos,9.3,9.0,16.69,25,90,3.4,NG,1704172941
306,kalifornsky,60.4183,-151.29,-3.83,100,0,7.72,US,1704173166
307,nuuk,64.1835,-51.7216,0.34,40,75,3.09,GL,1704173167
308,fort bragg,35.139,-79.006,3.75,62,0,2.57,US,1704173168
309,pitimbu,-7.4706,-34.8086,23.33,83,8,2.67,BR,1704173169
310,boguchany,58.3814,97.4531,-18.41,94,99,1.34,RU,1704173170
311,san ignacio rio muerto,27.4167,-110.2333,16.0,80,76,2.92,MX,1704173171
312,tibanbang,6.6315,126.1055,25.9,84,100,3.87,PH,1704173172
313,olovyannaya,50.95,115.5667,-12.51,86,59,2.5,RU,1704173173
314,hagenow,53.4333,11.1833,2.71,91,100,3.93,DE,1704173174
315,strezhevoy,60.7333,77.5889,-21.13,98,100,5.81,RU,1704173175
316,labytnangi,66.6572,66.4183,-29.29,95,59,1.84,RU,1704173176
317,uray,60.1247,64.7758,-23.64,94,100,4.93,RU,1704173177
318,bac lieu,9.285,105.7244,30.92,60,60,2.3,VN,1704173178
319,bamboo flat,11.7,92.7167,29.05,70,20,5.66,IN,1704173179
320,berdigestyakh,62.0989,126.6992,-26.7,100,100,1.31,RU,1704173180
321,kuytun,54.3419,101.5036,-8.44,94,100,2.48,RU,1704173181
322,eagle mountain,40.3141,-112.0069,0.95,69,7,0.45,US,1704172934
323,paracuru,-3.41,-39.0306,23.79,88,100,0.23,BR,1704173145
324,al burayqah,30.4062,19.5739,15.48,56,4,3.25,LY,1704173184
325,demba,-5.51,22.2667,20.63,97,100,0.41,CD,1704173185
326,antsiranana,-12.2787,49.2917,28.42,78,40,3.09,MG,1704173102
327,russkaya polyana,49.417,31.9201,5.72,75,100,9.63,UA,1704173187
328,ibresi,55.2961,47.0394,-29.56,99,86,1.03,RU,1704173189
329,haiku-pauwela,20.9219,-156.3051,23.36,74,20,7.72,US,1704172910
330,huron,41.1501,-82.5499,-0.12,79,50,2.65,US,1704173191
331,crane,31.3974,-102.3501,7.13,52,88,4.56,US,1704173192
332,san pedro,14.35,121.0167,31.57,76,75,3.6,PH,1704173193
333,palikir - national government center,6.9248,158.1611,29.41,79,40,2.57,FM,1704173194
334,kenai,60.5544,-151.2583,-3.97,74,0,7.72,US,1704173195
335,boende,-0.2167,20.8667,23.97,83,100,1.05,CD,1704173196
336,kailua-kona,19.6406,-155.9956,25.98,83,100,0.0,US,1704173197
337,nouadhibou,20.931,-17.0347,17.99,55,100,5.14,MR,1704173198
338,pemba,-12.974,40.5178,25.39,100,75,3.09,MZ,1704173199
339,ola,59.5833,151.2833,-27.7,89,37,2.42,RU,1704173200
340,tbeng meanchey,13.8167,104.9667,34.79,38,12,1.16,KH,1704173201
341,vanimo,-2.6741,141.3028,29.07,70,100,1.51,PG,1704173202
342,trat,12.5,102.5,33.11,33,59,4.78,TH,1704173203
343,bocaiuva,-17.1078,-43.815,20.75,96,100,1.77,BR,1704172991
344,dvurechensk,56.5982,61.0953,-24.62,93,99,4.1,RU,1704173205
345,colac,-38.3333,143.5833,21.57,74,95,4.05,AU,1704173206
346,nacala,-14.5428,40.6728,26.21,88,100,2.16,MZ,1704173207
347,gospic,44.5461,15.3747,-0.17,95,63,0.59,HR,1704173208
348,maloye ganyushkino,46.6,49.2667,-0.04,82,50,3.52,KZ,1704173209
349,cururupu,-1.8283,-44.8683,23.29,97,100,0.88,BR,1704173032
350,bodo,67.28,14.405,-8.46,53,0,12.86,NO,1704173212
351,bulungu,-4.55,18.6,21.17,98,97,0.93,CD,1704173213
352,tangalle,6.024,80.7911,26.09,92,100,6.0,LK,1704173214
353,iskateley,67.6803,53.1512,-25.55,100,90,1.79,RU,1704173215
354,brynamman,51.8,-3.8667,9.89,92,100,4.66,GB,1704173216
355,kantagi,43.5264,68.5775,1.1,69,100,2.24,KZ,1704173217
356,llanes,43.4198,-4.7549,13.46,61,100,3.91,ES,1704173086
357,gryazovets,58.88,40.2525,-34.34,100,68,1.63,RU,1704173219
358,idaho falls,43.4666,-112.0341,-5.56,90,0,2.06,US,1704173220
359,luganville,-15.5333,167.1667,29.28,73,90,3.61,VU,1704173221
360,itoman,26.1247,127.6694,22.21,46,20,5.66,JP,1704173222
361,opuwo,-18.0607,13.84,19.74,34,76,0.74,NA,1704173223
362,jesup,31.6074,-81.8854,9.84,53,0,3.6,US,1704172949
363,namdrik,5.5994,168.1028,28.47,80,12,8.77,MH,1704173225
364,baiyin,36.5583,104.2081,-0.62,34,0,0.94,CN,1704173226
365,misratah,32.3754,15.0925,14.92,47,100,3.29,LY,1704173227
366,island harbour,50.724,-1.2758,12.22,93,100,4.02,GB,1704173228
367,lima,-12.0432,-77.0282,22.17,82,75,6.69,PE,1704172584
368,coronel dorrego,-38.7187,-61.2873,18.47,69,94,4.61,AR,1704173230
369,qarazhal,48.0078,70.7903,-1.08,91,90,12.82,KZ,1704173231
370,barranca,-10.75,-77.7667,21.29,82,93,3.58,PE,1704173232
371,flying fish cove,-10.4217,105.6791,29.82,74,100,4.12,CX,1704173233
372,howrah,22.5892,88.3103,16.0,82,0,2.57,IN,1704173135
373,thisted,56.9552,8.6949,4.0,96,100,10.78,DK,1704173235
374,langepas,61.2544,75.2124,-21.26,93,100,5.55,RU,1704173236
375,arrifes,37.7667,-25.7,17.18,94,75,5.66,PT,1704173237
376,hadibu,12.65,54.0333,25.26,65,56,5.38,YE,1704173239
377,bornu yassu,12.2774,12.5552,17.34,35,100,3.97,NG,1704173240
378,roccella ionica,38.322,16.4009,14.14,79,100,4.7,IT,1704173241
379,alesund,62.4723,6.1549,3.08,52,0,6.69,NO,1704173242
380,kiunga,-6.1219,141.2906,26.61,84,100,0.78,PG,1704173244
381,antonio enes,-16.2325,39.9086,27.35,81,98,3.75,MZ,1704173245
382,saint-philippe,-21.3585,55.7679,24.77,81,100,3.95,RE,1704173246
383,capri,40.5507,14.2426,12.22,79,0,2.57,IT,1704173247
384,barika,35.389,5.3658,8.49,80,23,2.26,DZ,1704173248
385,noumea,-22.2763,166.4572,36.99,59,48,7.53,NC,1704172950
386,chicoana,-25.1009,-65.5331,19.47,94,100,0.17,AR,1704173250
387,bovalino,38.149,16.174,15.19,79,100,3.34,IT,1704173251
388,ulaangom,49.9811,92.0667,-20.0,98,98,1.0,MN,1704173252
389,gonen,40.1049,27.654,4.98,89,87,2.67,TR,1704173253
390,talcahuano,-36.7167,-73.1167,14.82,88,0,1.03,CL,1704173109
391,policka,49.7146,16.2654,2.82,85,96,2.77,CZ,1704173255
392,christchurch,-43.5333,172.6333,21.62,57,99,5.14,NZ,1704172984
393,tromso,69.6496,18.957,-8.99,73,100,3.09,NO,1704173257
394,morfou,35.1981,32.9914,11.49,68,100,1.82,CY,1704173258
395,gamay,12.3854,125.2979,29.74,63,62,3.51,PH,1704173259
396,bereznik,62.8551,42.7072,-34.0,100,76,0.59,RU,1704173260
397,ar rutbah,33.0381,40.2848,10.35,72,100,2.96,IQ,1704173261
398,zwedru,6.0667,-8.1281,21.89,98,40,0.83,LR,1704173263
399,suva,-18.1416,178.4415,27.71,78,75,4.12,FJ,1704173264
400,saint john,45.2727,-66.0677,-5.0,73,100,3.09,CA,1704172677
401,tralee,52.2704,-9.7026,9.31,97,100,1.28,IE,1704173266
402,tottenham,-32.2333,147.35,34.01,28,75,4.79,AU,1704173267
403,maumere,-8.6199,122.2111,30.65,70,35,1.84,ID,1704173268
404,puerto armuelles,8.2833,-82.8667,26.16,62,34,0.45,PA,1704173269
405,hiratacho,35.4333,132.8167,14.01,47,75,5.66,JP,1704173270
406,sydney mines,46.2367,-60.2177,-3.09,80,100,3.09,CA,1704173271
407,leh,34.1667,77.5833,-5.92,37,0,1.26,IN,1704172983
408,peace river,56.2501,-117.286,-8.83,73,100,3.6,CA,1704173272
409,fisterra,42.9049,-9.2629,14.3,91,100,15.82,ES,1704173274
410,puerto leguizamo,-0.1934,-74.7819,23.45,95,99,0.29,CO,1704173275
411,grootfontein,-19.5667,18.1167,21.76,35,82,2.06,NA,1704173276
412,al jahra',29.3375,47.6581,16.46,47,0,2.91,KW,1704173277
413,stevens point,44.5236,-89.5746,-3.92,82,100,4.47,US,1704173252
414,spanish wells,26.323,-81.7957,17.76,75,0,0.0,US,1704173279
415,puerto carreno,6.189,-67.4859,26.51,67,91,3.14,CO,1704173280
416,kroya,-7.6331,109.2461,29.49,75,98,3.66,ID,1704173282
417,lata,40.1629,-8.3327,11.15,87,79,2.07,PT,1704173283
418,phan rang-thap cham,11.5667,108.9833,31.64,53,91,6.9,VN,1704173284
419,neryungri,56.6709,124.6491,-18.98,94,87,0.69,RU,1704173285
420,kikwit,-5.041,18.8162,21.42,98,100,0.82,CD,1704173287
421,sur,22.5667,59.5289,24.65,49,0,0.83,OM,1704173289
422,kupino,54.3663,77.2981,-2.9,95,99,5.07,RU,1704173289
423,mananjary,-21.2167,48.3333,25.26,95,100,4.57,MG,1704173290
424,north bend,43.4065,-124.2243,9.36,100,0,2.57,US,1704173291
425,lompoc,34.6391,-120.4579,12.18,88,0,2.57,US,1704173022
426,alenquer,-1.9417,-54.7383,24.75,83,70,0.9,BR,1704173293
427,sinop,41.7711,34.8709,7.23,70,98,3.74,TR,1704173294
428,sechura,-5.5569,-80.8222,22.79,78,54,4.92,PE,1704173295
429,langsa,4.4683,97.9683,31.22,60,98,1.89,ID,1704173296
430,wajir,1.7471,40.0573,25.99,65,21,5.64,KE,1704173297
431,colchani,-20.3,-66.9333,12.25,51,100,1.87,BO,1704173298
432,mahibadhoo,3.7833,72.9667,27.53,76,99,2.36,MV,1704173299
433,asau,46.4333,26.4,5.71,72,100,3.89,RO,1704173300
434,newman,37.3138,-121.0208,8.34,91,0,0.45,US,1704173301
435,tambura,5.6,27.4667,22.49,29,31,2.4,SS,1704173302
436,laoag,18.1989,120.5936,28.95,74,40,7.2,PH,1704173038
437,kristiansund,63.1115,7.732,0.36,47,4,3.6,NO,1704173304
438,quepos,9.4236,-84.1652,25.02,81,19,1.55,CR,1704173305
439,box elder,41.5005,-112.8764,-0.97,61,93,0.81,US,1704173306
440,tsiombe,-25.3,45.4833,24.98,85,95,7.91,MG,1704173307
441,amungan,15.3652,119.9582,30.0,63,70,3.28,PH,1704173308
442,i-n-salah,27.1935,2.4607,13.78,28,11,4.2,DZ,1704173309
443,stettler,52.3168,-112.7186,-7.36,94,75,1.18,CA,1704173309
444,rochester,43.1548,-77.6156,-0.51,82,100,2.57,US,1704173310
445,paita,-5.0892,-81.1144,22.38,82,67,4.61,PE,1704173311
446,dom pedrito,-30.9828,-54.6731,18.69,93,32,2.01,BR,1704173312
447,imbituba,-28.24,-48.6703,21.41,91,71,4.76,BR,1704173313
448,atar,20.5169,-13.0499,19.17,15,100,3.06,MR,1704173314
449,neiafu,-18.65,-173.9833,28.38,83,40,5.14,TO,1704173315
450,remire-montjoly,4.9167,-52.2667,26.02,89,0,1.03,GF,1704173316
451,karera,25.4667,78.15,18.78,49,0,2.31,IN,1704173317
452,suzun,53.7841,82.3116,-0.76,90,100,6.66,RU,1704173318
453,malpica,43.3228,-8.8105,14.63,74,100,11.89,ES,1704173319
454,westport,41.1415,-73.3579,2.12,64,0,3.09,US,1704173245
455,mhangura,-16.8939,30.1683,20.78,81,97,1.56,ZW,1704173321
456,yuzhno-kurilsk,44.0306,145.8556,-2.01,72,100,5.44,RU,1704173322
457,pisco,-13.7,-76.2167,22.03,88,40,4.12,PE,1704173057
458,bikenibeu village,1.3673,173.1241,29.98,84,40,2.57,KI,1704173324
459,kulunda,52.566,78.9385,-1.04,95,100,7.09,RU,1704173325
460,bairnsdale,-37.8333,147.6167,25.03,68,100,2.68,AU,1704173326
461,kovdor,67.5662,30.4758,-29.06,100,31,1.95,RU,1704173326
462,guerrero negro,27.9769,-114.0611,15.94,74,14,3.32,MX,1704173327
463,inhambane,-23.865,35.3833,24.87,85,100,7.91,MZ,1704173328
464,urucui,-7.2294,-44.5561,23.75,94,76,1.57,BR,1704173329
465,dajal,29.5577,70.3762,18.57,24,3,1.39,PK,1704173330
466,booue,-0.0921,11.9385,22.84,97,56,0.9,GA,1704173332
467,qamdo,31.1667,97.2333,-4.48,33,98,0.93,CN,1704173333
468,babura,12.7731,9.0158,16.8,20,22,3.68,NG,1704173334
469,harstad,68.799,16.5293,-13.34,74,98,2.87,NO,1704173335
470,santa ana de yacuma,-13.75,-65.4333,24.28,88,98,2.56,BO,1704173336
471,msaken,35.7292,10.5808,14.7,77,20,3.6,TN,1704173337
472,kannangad,12.3081,75.1063,29.74,57,88,0.66,IN,1704173338
473,hilo,19.7297,-155.09,22.83,92,75,3.09,US,1704173227
474,la sarre,48.8002,-79.1996,-3.95,81,99,5.58,CA,1704173155
475,show low,34.2542,-110.0298,3.93,55,100,0.45,US,1704173232
476,hammond,41.5834,-87.5,-1.33,86,100,4.12,US,1704173342
477,bandarbeyla,9.4942,50.8122,25.03,68,100,8.42,SO,1704173126
478,mungyeong,36.5946,128.1995,7.65,66,86,4.31,KR,1704173343
479,chilca,-12.5211,-76.7372,20.78,89,64,3.2,PE,1704173344
480,winnemucca,40.973,-117.7357,-4.97,80,0,3.09,US,1704173345
481,taltal,-25.4,-70.4833,18.45,83,11,0.83,CL,1704173346
482,turan,16.0678,108.2208,22.99,94,100,0.0,VN,1704173347
483,pointe-noire,-4.7761,11.8635,26.18,88,100,2.6,CG,1704173348
484,carboneras,37.0015,-1.9213,9.62,70,63,2.2,ES,1704173349
485,tarko-sale,64.9225,77.785,-33.09,97,7,4.57,RU,1704173350
486,chrastava,50.8169,14.9688,4.35,74,98,3.13,CZ,1704173351
487,berezovo,63.9381,65.0419,-31.03,98,17,3.29,RU,1704173352
488,antofagasta,-23.65,-70.4,19.6,79,51,1.14,CL,1704173163
489,xingcheng,40.6167,120.7167,0.12,63,17,1.88,CN,1704173354
490,el jadid,33.2549,-8.506,14.34,55,68,1.94,MA,1704173173
491,mitsamiouli,-11.3847,43.2844,29.4,74,62,4.44,KM,1704173356
492,uaua,-9.8414,-39.4817,22.91,78,54,3.5,BR,1704173357
493,revda,56.801,59.9303,-24.74,96,97,1.78,RU,1704173358
494,caleta de carquin,-11.0925,-77.6267,21.46,84,92,4.49,PE,1704173359
495,jatiroto,-7.8833,111.1167,28.59,75,97,0.71,ID,1704173360
496,rabaul,-4.1967,152.1721,29.32,71,49,2.47,PG,1704173361
497,abong mbang,3.9833,13.1833,18.07,73,22,0.9,CM,1704173362
498,beroroha,-21.6667,45.1667,25.89,79,100,2.7,MG,1704173363
499,san antonio de pale,-1.4014,5.6325,27.06,81,36,3.35,GQ,1704173364
500,melekeok village,7.4957,134.6367,31.31,70,75,3.09,PW,1704173365
501,port macquarie,-31.4333,152.9167,26.61,65,84,4.72,AU,1704173182
502,sehwan,26.4279,67.863,21.01,22,0,1.15,PK,1704173367
503,vadso,70.0744,29.7487,-18.51,87,100,6.11,NO,1704173368
504,vernon,50.2581,-119.2691,4.2,93,100,1.03,CA,1704173117
505,murray bridge,-35.1167,139.2667,28.61,41,61,5.96,AU,1704173370
506,ancud,-41.8697,-73.8203,11.83,91,100,0.61,CL,1704173371
507,cabinda,-5.55,12.2,27.08,94,20,0.0,AO,1704173372
508,astrakhan,46.3497,48.0408,-0.07,100,0,4.0,RU,1704173373
509,mil'kovo,55.6078,37.7956,-15.32,74,54,5.57,RU,1704173375
510,hengyang,26.8881,112.615,8.52,89,100,1.38,CN,1704173376
511,lloydminster,53.2835,-110.0016,-10.88,92,100,2.57,CA,1704173378
512,lockwood,45.8191,-108.4149,1.81,59,0,3.6,US,1704173379
513,susuman,62.7833,148.1667,-31.12,98,100,0.45,RU,1704173379
514,tokmok,42.8417,75.3016,6.18,61,100,0.09,KG,1704173380
515,axim,4.8699,-2.2405,26.26,81,54,2.3,GH,1704173381
516,berbera,10.4396,45.0143,24.0,73,9,1.18,SO,1704173382
517,baker city,44.7749,-117.8344,1.77,88,100,2.06,US,1704173112
518,tevriz,57.509,72.4042,-15.4,95,96,2.63,RU,1704173383
519,holualoa,19.6228,-155.9522,23.91,79,100,0.0,US,1704173366
520,belmonte,-15.8631,-38.8828,24.93,87,91,3.27,BR,1704173385
521,saint-leu,-21.15,55.2833,24.48,90,100,2.26,RE,1704173386
522,sabang,5.8933,95.3214,27.55,79,97,6.18,ID,1704173386
523,sinabang,2.4803,96.3801,29.37,69,79,0.88,ID,1704173387
524,tofol,5.3248,163.0078,28.54,82,61,7.97,FM,1704173388
525,rawson,-43.3002,-65.1023,16.23,88,14,3.52,AR,1704173388
526,quellon,-43.1167,-73.6167,11.4,97,19,2.03,CL,1704173389
527,kasane,-17.8167,25.15,22.05,83,0,1.03,BW,1704173390
528,taoudenni,22.6783,-3.9836,17.3,21,99,4.67,ML,1704173391
529,bayji,34.9311,43.487,11.87,44,100,1.73,IQ,1704173392
530,tazacorte,28.629,-17.9293,18.54,86,0,3.58,ES,1704173393
531,seredyna-buda,52.189,34.0364,-3.26,97,100,6.44,UA,1704173394
532,abepura,-2.6333,140.5833,31.45,66,40,2.06,ID,1704173395
533,tangermunde,52.5446,11.9765,3.81,87,100,4.25,DE,1704173395
534,slawharad,53.4446,31.0014,-7.1,67,100,7.02,BY,1704173396
535,hanceville,34.0607,-86.7675,2.95,78,0,2.31,US,1704173397
536,srandakan,-7.9386,110.2506,29.22,75,100,3.29,ID,1704173398
537,thunder bay,48.4001,-89.3168,-11.05,92,0,2.06,CA,1704173268
538,cabedelo,-6.9811,-34.8339,23.37,82,34,2.26,BR,1704173401
539,koppies,-27.2418,27.5742,21.92,51,14,6.77,ZA,1704173403
540,katsuren-haebaru,26.3369,127.8719,22.21,43,75,3.6,JP,1704173404
541,poronaysk,49.2167,143.1167,-11.87,88,99,1.81,RU,1704173405
542,lensk,60.7253,114.9278,-13.33,91,100,4.15,RU,1704173407
543,xining,36.6167,101.7667,-1.02,31,0,1.3,CN,1704173408
544,ketchikan,55.3422,-131.6461,5.99,93,100,3.09,US,1704173409
545,svobodnyy,51.4,128.1333,-17.39,88,12,1.51,RU,1704173410
